{
"type": "FeatureCollection",
"name": "kostanay_schools",
"crs": { "type": "name", "properties": { "name": "urn:ogc:def:crs:OGC:1.3:CRS84" } },
"features": [
{ "type": "Feature", "properties": { "Adress": "ул. Чехова д. 98", "sobstvennik": "" }, "geometry": { "type": "Point", "coordinates": [ 63.623035392423454, 53.216571551077642 ] } },
{ "type": "Feature", "properties": { "Adress": "0", "sobstvennik": "Музыкальная школа" }, "geometry": { "type": "Point", "coordinates": [ 63.640275555338313, 53.215405982242807 ] } },
{ "type": "Feature", "properties": { "Adress": "ул. Алтынсарина уч. №118", "sobstvennik": "Школа-интернат им. Алтынсарина" }, "geometry": { "type": "Point", "coordinates": [ 63.636827874031589, 53.21346024543989 ] } },
{ "type": "Feature", "properties": { "Adress": "ул. Каирбекова д.349", "sobstvennik": "Школа № 4" }, "geometry": { "type": "Point", "coordinates": [ 63.671656011072344, 53.235076679978455 ] } },
{ "type": "Feature", "properties": { "Adress": "ул. ВВеденская строен. 37", "sobstvennik": "Школа №11" }, "geometry": { "type": "Point", "coordinates": [ 63.659642449893688, 53.22807714261598 ] } },
{ "type": "Feature", "properties": { "Adress": "ул. Красносельская д.3", "sobstvennik": "Школа технического творчества" }, "geometry": { "type": "Point", "coordinates": [ 63.669035016357377, 53.226772992898901 ] } },
{ "type": "Feature", "properties": { "Adress": "ул. Бородина, д. 221 А", "sobstvennik": "Средняя школа № 5" }, "geometry": { "type": "Point", "coordinates": [ 63.635812217731619, 53.234746674774094 ] } },
{ "type": "Feature", "properties": { "Adress": "ул. Дзержинского строен. №5", "sobstvennik": "Школа № 115" }, "geometry": { "type": "Point", "coordinates": [ 63.60929291403756, 53.224003367038627 ] } },
{ "type": "Feature", "properties": { "Adress": "ул. Каирбекова д. 397", "sobstvennik": "Областной детский дом" }, "geometry": { "type": "Point", "coordinates": [ 63.686142109317998, 53.244071072544173 ] } },
{ "type": "Feature", "properties": { "Adress": "ул. Герцена д. 28", "sobstvennik": "" }, "geometry": { "type": "Point", "coordinates": [ 63.677156947272373, 53.239494951774887 ] } },
{ "type": "Feature", "properties": { "Adress": "ул. Гастелло уч. № 15/3", "sobstvennik": "Школа №13" }, "geometry": { "type": "Point", "coordinates": [ 63.661974341533082, 53.247203942127911 ] } },
{ "type": "Feature", "properties": { "Adress": "7 мкр. строен. 25/2", "sobstvennik": "ГУ \"Средняя школа № 10" }, "geometry": { "type": "Point", "coordinates": [ 63.59096638439997, 53.180789595668493 ] } },
{ "type": "Feature", "properties": { "Adress": "0", "sobstvennik": "" }, "geometry": { "type": "Point", "coordinates": [ 63.59169311354016, 53.181289340325172 ] } },
{ "type": "Feature", "properties": { "Adress": "ул. Вольнова д. 9", "sobstvennik": "Средняя школа № 19" }, "geometry": { "type": "Point", "coordinates": [ 63.6071482066939, 53.175241450828139 ] } },
{ "type": "Feature", "properties": { "Adress": "8 мкр. уч. 4469", "sobstvennik": "Государственное учреждение «Средняя школа № 16" }, "geometry": { "type": "Point", "coordinates": [ 63.592481576931938, 53.184924589710391 ] } },
{ "type": "Feature", "properties": { "Adress": "ул. Баймагамбетова д. 154", "sobstvennik": "Школа-гимназия им. Горького" }, "geometry": { "type": "Point", "coordinates": [ 63.623571988667265, 53.210598094636062 ] } },
{ "type": "Feature", "properties": { "Adress": "ул. Герцена д. 46/1", "sobstvennik": "Школа №22" }, "geometry": { "type": "Point", "coordinates": [ 63.685408388710691, 53.245998796743777 ] } },
{ "type": "Feature", "properties": { "Adress": "ул. Маяковского д. 131", "sobstvennik": "Средняя школа № 23 им. М. Козыбаева" }, "geometry": { "type": "Point", "coordinates": [ 63.611969497059633, 53.183693456309079 ] } },
{ "type": "Feature", "properties": { "Adress": "ул. Кайрбекова уч. 334", "sobstvennik": "Школа №3" }, "geometry": { "type": "Point", "coordinates": [ 63.681682566851002, 53.238208295242593 ] } },
{ "type": "Feature", "properties": { "Adress": "ул. Алтынсарина д. 1", "sobstvennik": "Школа № 18" }, "geometry": { "type": "Point", "coordinates": [ 63.611607201004027, 53.197981304676603 ] } },
{ "type": "Feature", "properties": { "Adress": "ул. Победы, д. 32", "sobstvennik": "Школа №14" }, "geometry": { "type": "Point", "coordinates": [ 63.649229586990806, 53.215699503132448 ] } },
{ "type": "Feature", "properties": { "Adress": "ул. Алтынсарина уч. №112", "sobstvennik": "Гимназия имени С.Мауленова" }, "geometry": { "type": "Point", "coordinates": [ 63.632359387653217, 53.210451625457694 ] } },
{ "type": "Feature", "properties": { "Adress": "ул. Я. Гашека строен. №2", "sobstvennik": "Костанайская коррекционная школа-интернат № 3" }, "geometry": { "type": "Point", "coordinates": [ 63.612491536871573, 53.175283686020649 ] } },
{ "type": "Feature", "properties": { "Adress": "ул. Узкоколейная уч. №14", "sobstvennik": "Школа №25" }, "geometry": { "type": "Point", "coordinates": [ 63.652949071560791, 53.260916319859554 ] } },
{ "type": "Feature", "properties": { "Adress": "ул. Ленинградская строен. №34", "sobstvennik": "Средняя школа № 6" }, "geometry": { "type": "Point", "coordinates": [ 63.599881290772736, 53.200526342507395 ] } },
{ "type": "Feature", "properties": { "Adress": "ул. Строительная д. 8", "sobstvennik": "Средняя Школа № 17" }, "geometry": { "type": "Point", "coordinates": [ 63.595823939098565, 53.205740861451879 ] } },
{ "type": "Feature", "properties": { "Adress": "0", "sobstvennik": "" }, "geometry": { "type": "Point", "coordinates": [ 63.611989101978168, 53.207634271822783 ] } },
{ "type": "Feature", "properties": { "Adress": "просп. Абая д. 17", "sobstvennik": "Физико-математический лицей" }, "geometry": { "type": "Point", "coordinates": [ 63.598863791358866, 53.177604911035758 ] } },
{ "type": "Feature", "properties": { "Adress": "ул. Маяковского д. 112", "sobstvennik": "" }, "geometry": { "type": "Point", "coordinates": [ 63.607682503807247, 53.17850445017929 ] } },
{ "type": "Feature", "properties": { "Adress": "ул. Байтурсынова строен. № 51", "sobstvennik": "ГККП «Специализированная художественная школа для одаренных детей им. А.И. Никифорова»" }, "geometry": { "type": "Point", "coordinates": [ 63.630273419527931, 53.214819698121509 ] } },
{ "type": "Feature", "properties": { "Adress": "ул. Алтынсарина д. 107", "sobstvennik": "Начальная казахская школа №24А" }, "geometry": { "type": "Point", "coordinates": [ 63.628803640155326, 53.209705071273483 ] } },
{ "type": "Feature", "properties": { "Adress": "0", "sobstvennik": "\"ГУ Дружбинская средняя школа" }, "geometry": { "type": "Point", "coordinates": [ 63.538898137483038, 53.154145692992834 ] } },
{ "type": "Feature", "properties": { "Adress": "ул. Гагарина 239", "sobstvennik": "" }, "geometry": { "type": "Point", "coordinates": [ 63.601747183258396, 53.243874046770074 ] } },
{ "type": "Feature", "properties": { "Adress": "7 мкр. д.6 А", "sobstvennik": "" }, "geometry": { "type": "Point", "coordinates": [ 63.586991119064201, 53.17945203180718 ] } },
{ "type": "Feature", "properties": { "Adress": "0", "sobstvennik": "Средняя школа № 8" }, "geometry": { "type": "Point", "coordinates": [ 63.620975450023451, 53.225920280854019 ] } },
{ "type": "Feature", "properties": { "Adress": "ул. Сибирская уч. 50", "sobstvennik": "Костанайская коррекционная школа-интернат № 2" }, "geometry": { "type": "Point", "coordinates": [ 63.604850617649333, 53.198692494706606 ] } },
{ "type": "Feature", "properties": { "Adress": "ул. Дулатова строен. №72", "sobstvennik": "ГУ \"ШКОЛА-ЛИЦЕЙ №2" }, "geometry": { "type": "Point", "coordinates": [ 63.638356258133129, 53.21680120920584 ] } },
{ "type": "Feature", "properties": { "Adress": "ул. Каирбекова д. 75", "sobstvennik": "Костанайская коррекционная школа" }, "geometry": { "type": "Point", "coordinates": [ 63.642461021720358, 53.210529555650673 ] } },
{ "type": "Feature", "properties": { "Adress": "ул. Каирбекова д. 75", "sobstvennik": "" }, "geometry": { "type": "Point", "coordinates": [ 63.643112102235683, 53.210719346787442 ] } },
{ "type": "Feature", "properties": { "Adress": "ул. Баймагамбетова строен. №162", "sobstvennik": "Детский центр" }, "geometry": { "type": "Point", "coordinates": [ 63.629450913905977, 53.215377973437327 ] } },
{ "type": "Feature", "properties": { "Adress": "мкр. Северо-Западный,49 Б,з/у 1", "sobstvennik": "ГУ \"жкх пт и ад \"" }, "geometry": { "type": "Point", "coordinates": [ 63.592513392550501, 53.23744392987075 ] } },
{ "type": "Feature", "properties": { "Adress": "ул. Энергетиков 12", "sobstvennik": "Средняя школа № 30" }, "geometry": { "type": "Point", "coordinates": [ 63.586966184640453, 53.150728478515134 ] } },
{ "type": "Feature", "properties": { "Adress": "9 мкр-н. д.9", "sobstvennik": "Профлицей Бытового сервиса" }, "geometry": { "type": "Point", "coordinates": [ 63.599738255903532, 53.184418026633701 ] } },
{ "type": "Feature", "properties": { "Adress": "ул. Белинского д.5", "sobstvennik": "Средняя школа №" }, "geometry": { "type": "Point", "coordinates": [ 63.560847477946474, 53.243467556654707 ] } },
{ "type": "Feature", "properties": { "Adress": "мкр. Юбилейный, зем. уч. 55А", "sobstvennik": "" }, "geometry": { "type": "Point", "coordinates": [ 63.617516460187574, 53.241254061686789 ] } },
{ "type": "Feature", "properties": { "Adress": "ул. Школьная уч. № 016", "sobstvennik": "" }, "geometry": { "type": "Point", "coordinates": [ 63.542024803782823, 53.100538848791459 ] } },
{ "type": "Feature", "properties": { "Adress": "ул. Герцена д.31", "sobstvennik": "Казахско-турецкая школа" }, "geometry": { "type": "Point", "coordinates": [ 63.682102449837856, 53.248344617994753 ] } },
{ "type": "Feature", "properties": { "Adress": "Аэропорт", "sobstvennik": "" }, "geometry": { "type": "Point", "coordinates": [ 63.569636132456118, 53.221119376019331 ] } },
{ "type": "Feature", "properties": { "Adress": "ул. Гоголя д. 179", "sobstvennik": "Детско-юношеская спортивная школа" }, "geometry": { "type": "Point", "coordinates": [ 63.606140929202276, 53.222449634035264 ] } },
{ "type": "Feature", "properties": { "Adress": "ул. Бородина д. 138/1", "sobstvennik": "Профлицей №16" }, "geometry": { "type": "Point", "coordinates": [ 63.628537541281609, 53.227096568906298 ] } }
]
}
